[
  {
    "id": "exodus",
    "name": "The Exodus",
    "description": "Israel's journey from Egypt to the Promised Land (~1446-1406 BC)",
    "era": "Exodus & Conquest",
    "color": "#dc2626",
    "references": ["EXO.12.31", "EXO.14.21", "NUM.33.1"],
    "waypoints": [
      {"name": "Rameses (Egypt)", "lat": 30.790, "lon": 31.830},
      {"name": "Succoth", "lat": 30.550, "lon": 32.050},
      {"name": "Crossing the Red Sea", "lat": 29.950, "lon": 32.550},
      {"name": "Marah", "lat": 29.270, "lon": 33.100},
      {"name": "Elim", "lat": 28.900, "lon": 33.200},
      {"name": "Wilderness of Sin", "lat": 28.700, "lon": 33.400},
      {"name": "Rephidim", "lat": 28.600, "lon": 33.600},
      {"name": "Mount Sinai", "lat": 28.539, "lon": 33.975},
      {"name": "Kadesh Barnea", "lat": 30.630, "lon": 34.400},
      {"name": "Mount Hor", "lat": 30.320, "lon": 35.420},
      {"name": "Plains of Moab", "lat": 31.770, "lon": 35.550},
      {"name": "Jericho", "lat": 31.871, "lon": 35.444}
    ]
  },
  {
    "id": "paul_1",
    "name": "Paul's First Journey",
    "description": "Paul and Barnabas' first missionary journey (~47-48 AD)",
    "era": "New Testament",
    "color": "#2563eb",
    "references": ["ACT.13.1", "ACT.14.26"],
    "waypoints": [
      {"name": "Antioch (Syria)", "lat": 36.200, "lon": 36.160},
      {"name": "Seleucia", "lat": 36.120, "lon": 35.940},
      {"name": "Salamis (Cyprus)", "lat": 35.190, "lon": 33.900},
      {"name": "Paphos (Cyprus)", "lat": 34.760, "lon": 32.410},
      {"name": "Perga", "lat": 36.960, "lon": 30.850},
      {"name": "Antioch (Pisidia)", "lat": 38.300, "lon": 31.170},
      {"name": "Iconium", "lat": 37.870, "lon": 32.490},
      {"name": "Lystra", "lat": 37.570, "lon": 32.370},
      {"name": "Derbe", "lat": 37.380, "lon": 33.380},
      {"name": "Lystra", "lat": 37.570, "lon": 32.370},
      {"name": "Iconium", "lat": 37.870, "lon": 32.490},
      {"name": "Antioch (Pisidia)", "lat": 38.300, "lon": 31.170},
      {"name": "Perga", "lat": 36.960, "lon": 30.850},
      {"name": "Attalia", "lat": 36.880, "lon": 30.700},
      {"name": "Antioch (Syria)", "lat": 36.200, "lon": 36.160}
    ]
  },
  {
    "id": "paul_2",
    "name": "Paul's Second Journey",
    "description": "Paul's second missionary journey through Greece (~49-52 AD)",
    "era": "New Testament",
    "color": "#7c3aed",
    "references": ["ACT.15.36", "ACT.18.22"],
    "waypoints": [
      {"name": "Antioch (Syria)", "lat": 36.200, "lon": 36.160},
      {"name": "Tarsus", "lat": 36.920, "lon": 34.890},
      {"name": "Derbe", "lat": 37.380, "lon": 33.380},
      {"name": "Lystra", "lat": 37.570, "lon": 32.370},
      {"name": "Troas", "lat": 39.760, "lon": 26.170},
      {"name": "Philippi", "lat": 41.010, "lon": 24.290},
      {"name": "Thessalonica", "lat": 40.640, "lon": 22.940},
      {"name": "Berea", "lat": 40.470, "lon": 22.200},
      {"name": "Athens", "lat": 37.980, "lon": 23.730},
      {"name": "Corinth", "lat": 37.910, "lon": 22.880},
      {"name": "Ephesus", "lat": 37.940, "lon": 27.340},
      {"name": "Caesarea", "lat": 32.500, "lon": 34.890},
      {"name": "Jerusalem", "lat": 31.768, "lon": 35.214},
      {"name": "Antioch (Syria)", "lat": 36.200, "lon": 36.160}
    ]
  },
  {
    "id": "paul_3",
    "name": "Paul's Third Journey",
    "description": "Paul's third missionary journey centered on Ephesus (~53-57 AD)",
    "era": "New Testament",
    "color": "#059669",
    "references": ["ACT.18.23", "ACT.21.17"],
    "waypoints": [
      {"name": "Antioch (Syria)", "lat": 36.200, "lon": 36.160},
      {"name": "Tarsus", "lat": 36.920, "lon": 34.890},
      {"name": "Ephesus", "lat": 37.940, "lon": 27.340},
      {"name": "Troas", "lat": 39.760, "lon": 26.170},
      {"name": "Philippi", "lat": 41.010, "lon": 24.290},
      {"name": "Corinth", "lat": 37.910, "lon": 22.880},
      {"name": "Philippi", "lat": 41.010, "lon": 24.290},
      {"name": "Troas", "lat": 39.760, "lon": 26.170},
      {"name": "Miletus", "lat": 37.530, "lon": 27.280},
      {"name": "Patara", "lat": 36.260, "lon": 29.310},
      {"name": "Tyre", "lat": 33.270, "lon": 35.200},
      {"name": "Caesarea", "lat": 32.500, "lon": 34.890},
      {"name": "Jerusalem", "lat": 31.768, "lon": 35.214}
    ]
  },
  {
    "id": "paul_rome",
    "name": "Paul's Journey to Rome",
    "description": "Paul's voyage as a prisoner to Rome (~59-60 AD)",
    "era": "New Testament",
    "color": "#d97706",
    "references": ["ACT.27.1", "ACT.28.16"],
    "waypoints": [
      {"name": "Caesarea", "lat": 32.500, "lon": 34.890},
      {"name": "Sidon", "lat": 33.560, "lon": 35.370},
      {"name": "Myra", "lat": 36.260, "lon": 29.980},
      {"name": "Cnidus", "lat": 36.690, "lon": 27.370},
      {"name": "Fair Havens (Crete)", "lat": 34.920, "lon": 24.780},
      {"name": "Malta (Shipwreck)", "lat": 35.900, "lon": 14.400},
      {"name": "Syracuse", "lat": 37.070, "lon": 15.280},
      {"name": "Puteoli", "lat": 40.830, "lon": 14.120},
      {"name": "Rome", "lat": 41.890, "lon": 12.490}
    ]
  },
  {
    "id": "abraham",
    "name": "Abraham's Journey",
    "description": "Abraham's journey from Ur to Canaan (~2000 BC)",
    "era": "Patriarchs",
    "color": "#92400e",
    "references": ["GEN.11.31", "GEN.12.1"],
    "waypoints": [
      {"name": "Ur of the Chaldees", "lat": 30.960, "lon": 46.100},
      {"name": "Haran", "lat": 36.870, "lon": 39.030},
      {"name": "Shechem", "lat": 32.214, "lon": 35.284},
      {"name": "Bethel", "lat": 31.923, "lon": 35.241},
      {"name": "Egypt", "lat": 30.044, "lon": 31.236},
      {"name": "Bethel", "lat": 31.923, "lon": 35.241},
      {"name": "Hebron", "lat": 31.533, "lon": 35.095}
    ]
  }
]
